Banco,Sucursal,Direccion,Ciudad,Pais,Latitud,Longitud

Banco Popular ,Alcala,"Alcala, 26",Madrid,Espana,29.853171,-95.2505329

Banco Popular ,General Ricardos,"General Ricardos, 151",Madrid,Espana,40.3926184,-3.7251941

Banco Popular ,Fuencarral,"Fuencarral, 134",Madrid,Espana,40.4950279,-3.6921711

Banco Popular ,Gta. Cuatro Caminos,"Glorieta Cuatro Caminos, 4",Madrid,Espana,40.4472909,-3.7042116

Banco Popular ,Fernando el Catolico,"Fernando el Catolico, 21",Madrid,Espana,-32.9409902,-60.6810464

Banco Popular ,Avenida Ciudad de Barcelona,"Avenida Ciudad de Barcelona, 35",Madrid,Espana,-2.1900601,-79.9320203

Banco Popular ,Lopez de Hoyos,"Lopez de Hoyos, 67",Madrid,Espana,40.466459,-3.6545747

Banco Popular ,Conde de Penalver,"Conde de Penalver, 22",Madrid,Espana,40.4273858,-3.6753045

Banco Popular ,Velazquez,"Velazquez, 34",Madrid,Espana,41.7728418,-0.3260693

Banco Popular ,Doctor Esquerdo,"Doctor Esquerdo, 3",Madrid,Espana,37.6963638,-6.5913069

Banco Popular ,Jose Abascal,"Jose Abascal, 18",Madrid,Espana,-0.277707,-78.4719448

Banco Popular ,Santa Isabel,"Santa Isabel, 12",Madrid,Espana,-12.0636292,-76.9568903

Banco Popular ,Marcelo Usera,"Marcelo Usera, 122",Madrid,Espana,40.3851478,-3.7142072

Banco Popular ,Mayor,"Mayor, 5",Madrid,Espana,42.5840295,-4.2266297

Banco Popular ,Paseo Sta. Maria de La Cabeza,"Paseo Santa Maria de La Cabeza, 19",Madrid,Espana,40.6602429,-4.7018006

Banco Popular ,Jose Ortega Y Gasset,"Jose Ortega Y Gasset, 23",Madrid,Espana,-2.9160237,-79.0099174

Banco Popular ,Gran Via,"Gran Via, 67",Madrid,Espana,37.8555825636,-122.037472408

Banco Popular ,Princesa,"Princesa, 72",Madrid,Espana,-26.4452736,-53.5999129

Banco Popular ,Alcala,"Alcala, 372",Madrid,Espana,29.853171,-95.2505329

Banco Popular ,Marcos de Orueta,"Marcos de Orueta, 1",Madrid,Espana,40.4847769,-3.6861292

Banco Popular ,Marceliano Santa Maria,"Marceliano Santa Maria, 10",Madrid,Espana,42.34280115,-3.69500489666

Banco Popular ,Avenida General Peron,"Avenida General Peron, 30",Madrid,Espana,-32.2386846,-63.9741756

Banco Popular ,Avenida de La Albufera,"Avenida de La Albufera, 61",Madrid,Espana,40.3905435,-3.647406
Banco Popular ,Embajadores,"Embajadores, 78",Madrid,Espana,25.6517913,-100.3121103

Banco Popular ,Luchana,"Luchana, 40",Madrid,Espana,43.370514,-8.3983227

Banco Popular ,Arturo Soria,"Arturo Soria, 324",Madrid,Espana,40.4487008,-3.6505874

Banco Popular ,Ruiz de Alarcon,"Ruiz de Alarcon, 25",Madrid,Espana,40.0722162,-2.1309783

Banco Popular ,Fuencarral,"Fuencarral, 79",Madrid,Espana,40.4950279,-3.6921711

Banco Popular ,Plaza San Miguel,"Plaza San Miguel, 7",Madrid,Espana,41.649767,-0.8759659

Banco Popular ,Fernan Gonzalez,"Fernan Gonzalez, 71",Madrid,Espana,37.6687875,-4.7237462

Banco Popular ,Luisa Fernanda,"Luisa Fernanda, 8",Madrid,Espana,3.4100185,-76.5642362492

Banco Popular ,Guzman el Bueno,"Guzman el Bueno, 21",Madrid,Espana,37.6934288,-6.5487773

Banco Popular ,Paseo de La Habana,"Paseo de La Habana, 151",Madrid,Espana,40.46350365,-3.680424842

Banco Popular ,Carretera Villaverde A Vallecas,Carretera Villaverde A Vallecas,Madrid,Espana,40.3577968,-3.6848445

Banco Popular ,Alberto Aguilera,"Alberto Aguilera, 8",Madrid,Espana,40.4298654,-3.7069623

Banco Popular ,Eraso,"Eraso, 21",Madrid,Espana,42.9494201,-1.8060142

Banco Popular ,Cea Bermudez,"Cea Bermudez, 53",Madrid,Espana,40.4389953,-3.7132866

Banco Popular ,Avenida Moratalaz,"Avenida Moratalaz, 137",Madrid,Espana,40.4055207,-3.64015724939

Banco Popular ,San Francisco de Sales,"San Francisco de Sales, 33",Madrid,Espana,14.4051175,-90.6052859

Banco Popular ,Panama,"Panama, 6",Madrid,Espana,30.3555347,-85.7986206

Banco Popular ,Avenida General,"Avenida General, 16",Madrid,Espana,40.4696412,-3.5810491

Banco Popular ,Avenida del Mediterraneo,"Avenida del Mediterraneo, 30",Madrid,Espana,38.5370313,-0.1231643

Banco Popular ,Paseo Extremadura,"Paseo Extremadura, 101",Madrid,Espana,39.5567156,-6.4156026

Banco Popular ,Diego de Leon,"Calle Diego de Leon, 52",Madrid,Espana,40.824107,0.5011293

Banco Popular ,Alcala,"Alcala, 289",Madrid,Espana,29.853171,-95.2505329

Banco Popular ,Sesena,"Sesena, 72",Madrid,Espana,40.1048269,-3.6963092

Banco Popular ,Genova,"Genova, 20",Madrid,Espana,29.42323,-98.5670999

Banco Popular ,Sierra Vieja,"Sierra Vieja, 64",Madrid,Espana,40.3771041,-3.6298689

Banco Popular ,Velazquez 34 3. Pl.,"Velazquez, 34",Madrid,Espana,41.7728418,-0.3260693

Banco Popular ,Doctor Perez Dominguez,"Doctor Perez Dominguez, 18",Madrid,Espana,40.3468192,-3.7075012

Banco Popular ,Quintana,"Quintana, 15",Madrid,Espana,35.5701575714,-105.676049429

Banco Popular ,Bravo Murillo,"Bravo Murillo, 296",Madrid,Espana,40.4510674,-3.7033717

Banco Popular ,Bolivia,"Bolivia, 26",Madrid,Espana,-16.99367005,-65.2485228306

Banco Popular ,Lopez de Hoyos,"Lopez de Hoyos, 346",Madrid,Espana,40.4593168,-3.6598477

Banco Popular ,Paseo de Las delicias,"Paseo de Las delicias, 91",Madrid,Espana,37.6002616,-0.9750856

Banco Popular ,Francos Rodriguez,"Francos Rodriguez, 47",Madrid,Espana,40.4576002,-3.7109087

Banco Popular ,Islas Cies,"Islas Cies, 2",Madrid,Espana,37.8857504,-4.800183

Banco Popular ,Francisco Gervas,"Francisco Gervas, 9",Madrid,Espana,40.4606277,-3.6908544

Banco Popular ,Jose Ortega Y Gasset,"Jose Ortega Y Gasset, 29",Madrid,Espana,-2.9160237,-79.0099174

Banco Popular ,Cedaceros,"Cedaceros, 9",Madrid,Espana,39.3634099,-1.8709985

Banco Popular ,Oca,"Oca, 69",Madrid,Espana,44.4118552,11.1405753

Banco Popular ,Avenida Bruselas,"Avenida Bruselas, 56",Madrid,Espana,10.4789576,-66.8197762

Banco Popular ,Torre Arias,"Torre Arias, 6",Madrid,Espana,40.4436439,-3.6171315

Banco Popular ,Plaza cristo Rey,"Plaza cristo Rey, 2",Madrid,Espana,39.9552939,-4.4011335

Banco Popular ,Toledo,"Toledo, 46",Madrid,Espana,33.7542473314,-118.124354398
Banco Popular ,Antonio Lopez,"Antonio Lopez, 4",Madrid,Espana,-18.5705602,-39.7514657

Banco Popular ,San Julio Esquina Calle Santoraz,Calle San Julio,Madrid,Espana,40.4421873,-3.6805861

Banco Popular ,Avenida San Diego,"Avenida San Diego, 71",Madrid,Espana,-18.9200761,-48.2146637

Banco Popular ,Avenida Rafaela Ybarra,"Avenida Rafaela Ybarra, 36",Madrid,Espana,40.3850031,-3.7116566

Banco Popular ,Jilguero,"Jilguero, 8",Madrid,Espana,37.899743,-1.2152842

Banco Popular ,Martinez de La Riva,"Martinez de La Riva, 4",Madrid,Espana,40.39544885,-3.66829414402

Banco Popular ,Santa Rita,"Santa Rita, 2",Madrid,Espana,38.9331937,-1.3255759

Banco Popular ,Santa Isabel,"Santa Isabel, 51",Madrid,Espana,33.6393277334,-117.58658046

Banco Popular ,Avenida Castilla,"Avenida Castilla, 2",Madrid,Espana,42.0088414,-4.5369625

Banco Popular ,Avenida de Badajoz,"Avenida de Badajoz, 24",Madrid,Espana,38.8750296,-7.1640631

Banco Popular ,Emilio Munoz,"Emilio Munoz, 43",Madrid,Espana,19.4763281,-98.207982

Banco Popular ,Camarena,"Camarena, 153",Madrid,Espana,40.0925817,-4.1212535

Banco Popular ,Miguel Angel,"Miguel Angel, 16",Madrid,Espana,-34.6476613,-58.8076773

Banco Popular ,Emilio Ferrari,"Emilio Ferrari, 63",Madrid,Espana,41.0218483,14.6188515
Banco Popular ,Maria de Molina,"Maria de Molina, 34",Madrid,Espana,40.0386694,-6.0892124

Banco Popular ,Avenida de Los Poblados,"Avenida de Los Poblados, 58",Madrid,Espana,40.3733021,-3.7119716

Banco Popular ,Banos de Montemayor,"Banos de Montemayor, 7",Madrid,Espana,40.3177157363,-5.85854040949

Banco Popular ,Melchor Fernandez Almagro,"Melchor Fernandez Almagro, 101",Madrid,Espana,40.4771211,-3.6908429

Banco Popular ,Carretera de Canillas,"Carretera de Canillas, 140",Madrid,Espana,40.4649806,-3.6389563

Banco Popular ,Avenida de La Osa Mayor,"Avenida de La Osa Mayor, 85",Madrid,Espana,40.4576201,-3.7902543

Banco Popular ,General Moscardo,"General Moscardo, 3",Madrid,Espana,35.2846841,-2.9472516

Banco Popular ,Paseo del Doctor Vallejo Najera,"Paseo del Doctor Vallejo Najera, 53",Madrid,Espana,40.4013284,-3.705152

Banco Popular ,Juan Ignacio Luca de Tena,"Calle de Juan Ignacio Luca de Tena, 11",Madrid,Espana,40.4477338,-3.632365

Banco Popular ,Avenida del Marques de Corbera,"Avenida del Marques de Corbera, 25",Madrid,Espana,40.4242189,-3.6543162

Banco Popular ,Avenida de Burgos,"Avenida de Burgos, 21",Madrid,Espana,37.9402091,-1.167768

Banco Popular ,Virgen de Las Vinas,"Virgen de Las Vinas, 9",Madrid,Espana,37.5791302,-4.6425142

Banco Popular ,Paseo Gigantes Y Cabezudos,"Paseo Gigantes Y Cabezudos, 6",Madrid,Espana,40.3605179,-3.6940875

Banco Popular ,Avenida Partenon,"Avenida Partenon, 10",Madrid,Espana,-30.0646609,-51.1901471

Banco Popular ,Santa Virgilia,"Santa Virgilia, 21",Madrid,Espana,40.47583,-3.6392726

Banco Popular ,Fermin Caballero,"Fermin Caballero, 36",Madrid,Espana,40.4831054,-3.7084794

Banco Popular ,Tumaco,"Tumaco, 6",Madrid,Espana,1.8077554,-78.7705976

Banco Popular ,Zarzuela,"Zarzuela, 2",Madrid,Espana,40.2560862,-2.1289673

Banco Popular ,Bravo Murillo,"Bravo Murillo, 9",Madrid,Espana,40.4510674,-3.7033717

Banco Popular ,Serrano,"Serrano, 77",Madrid,Espana,32.9093543,-105.9201288

Banco Popular ,Alcala,"Alcala, 499",Madrid,Espana,29.853171,-95.2505329

Banco Popular ,Catamaran,"Catamaran, 2",Madrid,Espana,52.2157173,5.4608429

Banco Popular ,Arturo Soria,"Arturo Soria, 166",Madrid,Espana,40.4487008,-3.6505874

Banco Popular ,Principe de Vergara,"Principe de Vergara, 208",Madrid,Espana,36.5189667,-4.876947

Banco Popular ,Infanta Mercedes,"Infanta Mercedes, 31",Madrid,Espana,-32.8954894,-68.8420281

Banco Popular ,Monforte de Lemos,"Monforte de Lemos, 166",Madrid,Espana,42.5236693,-7.509695

Banco Popular ,Ibiza,"Ibiza, 70",Madrid,Espana,-33.1255243,-71.5734636

Banco Popular ,Carretera Colmenar,"Carretera Colmenar, Km 9",Madrid,Espana,40.1948764,-3.4666467

Banco Popular ,Bravo Murillo,"Bravo Murillo, 237",Madrid,Espana,40.4510674,-3.7033717

Banco Popular ,Isabel Colbrand,"Isabel Colbrand, 18",Madrid,Espana,40.510624,-3.6775713

Banco Popular ,Paseo de La Florida,Paseo de La Florida,Madrid,Espana,40.4245287,-3.7251147

Banco Popular ,Labastida 11,"Labastida 11,",Madrid,Espana,42.5903817,-2.7928697

Banco Popular ,Velazquez 34,Velazquez 34,Madrid,Espana,41.7728418,-0.3260693

Banco Popular ,Aquitania,"Aquitania, 19",Madrid,Espana,5.5184511,-72.8840619

Banco Popular ,Paseo de La Castellana 174,"Paseo de La Castellana 174,",Madrid,Espana,40.4753415,-3.6867245

